{"business_id":"yzz0r5eNYZi7mSY4SSKuTQ","name":"BP","attributes":{"RestaurantsPriceRange2":"2"},"categories":"Food, Convenience Stores, Automotive, Gas Stations"}
{"business_id":"OKH-XeswlTPg6A_x0t2T9A","name":"Waterway Carwash", "attributes":{"RestaurantsPriceRange2":"2"},"categories":"Cafes, Automotive, Car Wash, Food, Convenience Stores, Gas Stations"}
{"business_id":"4iTksProkBrVi9tMS6mR8g","name":"Vape Land","address":"3961 E Chandler Blvd, Ste 103B","city":"Phoenix","state":"AZ","postal_code":"85048","latitude":33.3051106,"longitude":-111.998065,"stars":3.0,"review_count":37,"is_open":1,"attributes":{"RestaurantsPriceRange2":"2","BikeParking":"True","BusinessParking":"{'garage': False, 'street': False, 'validated': False, 'lot': True, 'valet': False}","BusinessAcceptsCreditCards":"True"},"categories":"Tobacco Shops, Shopping, Electronics, Vape Shops","hours":{"Monday":"9:0-21:0","Tuesday":"9:0-21:0","Wednesday":"9:0-21:0","Thursday":"9:0-21:0","Friday":"9:0-21:0","Saturday":"9:0-20:0","Sunday":"9:0-20:0"}}
{"business_id":"7MTQYugLbY01UO4Kq8NpPw","name":"McDonald's","address":"358 E University Dr","city":"Mesa","state":"AZ","postal_code":"85201","latitude":33.422778,"longitude":-111.8233631,"stars":1.5,"review_count":40,"is_open":1,"attributes":{"RestaurantsTakeOut":"True","Alcohol":"u'none'","GoodForKids":"True","Ambience":"{'touristy': False, 'hipster': False, 'romantic': False, 'divey': False, 'intimate': False, 'trendy': False, 'upscale': False, 'classy': False, 'casual': False}","BusinessParking":"{'garage': False, 'street': False, 'validated': False, 'lot': True, 'valet': False}","BusinessAcceptsCreditCards":"True","RestaurantsReservations":"False","HasTV":"True","GoodForMeal":"{'dessert': False, 'latenight': False, 'lunch': False, 'dinner': False, 'brunch': False, 'breakfast': False}","RestaurantsGoodForGroups":"False","RestaurantsDelivery":"True","RestaurantsPriceRange2":"1"},"categories":"Coffee & Tea, Restaurants, Food, Fast Food, Burgers","hours":{"Monday":"5:0-1:0","Tuesday":"5:0-1:0","Wednesday":"5:0-1:0","Thursday":"5:0-1:0","Friday":"5:0-1:0","Saturday":"5:0-1:0","Sunday":"5:0-1:0"}}
{"business_id":"DppMDrrAE3eWkD3JE7gl7g","name":"7-Eleven","address":"6070 W Sahara Ave","city":"Las Vegas","state":"NV","postal_code":"89146","latitude":36.1447887729,"longitude":-115.2248232812,"stars":1.5,"review_count":3,"is_open":1,"attributes":{"RestaurantsPriceRange2":"1","BusinessParking":"{'garage': False, 'street': False, 'validated': False, 'lot': False, 'valet': False}","BusinessAcceptsCreditCards":"True","WheelchairAccessible":"True","BikeParking":"False"},"categories":"Convenience Stores, Food, Gas Stations, Gas Stations, Coffee & Tea, Grocery, Automotive, Service Stations","hours":{"Monday":"0:0-0:0","Tuesday":"0:0-0:0","Wednesday":"0:0-0:0","Thursday":"0:0-0:0","Friday":"0:0-0:0","Saturday":"0:0-0:0","Sunday":"0:0-0:0"}}
